markers = [{"id_uznemums":"1","uz_tips_id":"2","knosaukums":"DATINA SIA","uznosaukums":"BANZAI SUSHI","uzadrese":"Pasta iela 28, Jelgava","uzlogo":null,"uz_lat":"56.643413","uz_lng":"23.721339"},{"id_uznemums":"2","uz_tips_id":"5","knosaukums":"DATINA SIA","uznosaukums":"\"Rosso pizza\", pic\u0113rija","uzadrese":"Liel\u0101 iela 17, Jelgava, LV-3007","uzlogo":null,"uz_lat":"56.643413","uz_lng":"23.721339"},{"id_uznemums":"3","uz_tips_id":"3","knosaukums":"DATINA SIA","uznosaukums":"ARGO","uzadrese":"Zemgales prospekts 17-1b, Jelgava, LV-3001 ","uzlogo":null,"uz_lat":"56.642091","uz_lng":"23.731807"},{"id_uznemums":"4","uz_tips_id":"2","knosaukums":"DATINA SIA","uznosaukums":"\"Kar\u012bna\"","uzadrese":"Rai\u0146a iela 15a, Jelgava, LV-3001","uzlogo":null,"uz_lat":"56.648049","uz_lng":"23.721835"},{"id_uznemums":"6","uz_tips_id":"2","knosaukums":"BILERTS IU ","uznosaukums":"\"Kar\u012bna\"","uzadrese":"Rai\u0146a iela 15a, Jelgava, LV-3001","uzlogo":null,"uz_lat":"56.642091","uz_lng":"23.721339"},{"id_uznemums":"7","uz_tips_id":"4","knosaukums":"BILERTS IU ","uznosaukums":"\"Kar\u012bna\"","uzadrese":"Rai\u0146a iela 15a, Jelgava, LV-3001","uzlogo":null,"uz_lat":"56.642091","uz_lng":"23.721339"},{"id_uznemums":"8","uz_tips_id":"3","knosaukums":"AKADEMIA SIA","uznosaukums":"\"Kar\u012bna\"","uzadrese":"Rai\u0146a iela 15a, Jelgava, LV-3001","uzlogo":null,"uz_lat":"56.642091","uz_lng":"23.721339"},{"id_uznemums":"9","uz_tips_id":"2","knosaukums":"ANMO SIA","uznosaukums":"\"Saules krogs\"","uzadrese":"K.Barona 6, Jelgava, LV-3001 ","uzlogo":null,"uz_lat":"56.653935","uz_lng":"23.723357"},{"id_uznemums":"10","uz_tips_id":"2","knosaukums":"KRO KEBABN\u012aCA SIA","uznosaukums":"Kro kebabn\u012bca","uzadrese":"M\u0101tera 40, Jelgava, LV-3001 ","uzlogo":null,"uz_lat":"56.64502","uz_lng":"23.722397"},{"id_uznemums":"11","uz_tips_id":"2","knosaukums":"VALETT SIA","uznosaukums":"\"Salmu krogs\"","uzadrese":"Kato\u013cu 18, Jelgava, LV-3001 ","uzlogo":null,"uz_lat":"56.64763","uz_lng":"23.7256"},{"id_uznemums":"12","uz_tips_id":"4","knosaukums":"MARIJAS TORNIS SIA","uznosaukums":"\u201eLa Tour de Marie\u201d","uzadrese":"Akad\u0113mijas iela 1, Jelgava, LV-3001","uzlogo":null,"uz_lat":"56.652478","uz_lng":"23.728914"},{"id_uznemums":"13","uz_tips_id":"4","knosaukums":"AITI\u0145LAUVAS DIVI SIA","uznosaukums":"Viesu nams \"Aiti\u0146lauvas\"","uzadrese":"\"Aiti\u0146lauvas\", Valgundes pag., Jelgavas nov., T\u012bre\u013ci, Valgundes pagasts, LV-3017","uzlogo":null,"uz_lat":"56.852395","uz_lng":"23.600753"},{"id_uznemums":"14","uz_tips_id":"2","knosaukums":"DAFAS SIA","uznosaukums":"\"Di\u0101na\"","uzadrese":"P\u0113tera 1, Jelgava, LV-3001 ","uzlogo":null,"uz_lat":"56.650275","uz_lng":"23.717532"},{"id_uznemums":"15","uz_tips_id":"2","knosaukums":"JK GROUP SIA","uznosaukums":"\"Tavs mirklis\"","uzadrese":"Pasta 45, Jelgava, LV-3001 ","uzlogo":null,"uz_lat":"56.649057","uz_lng":"23.724533"},{"id_uznemums":"16","uz_tips_id":"5","knosaukums":"PICU DARBN\u012aCA SIA","uznosaukums":"\"Picu Darbn\u012bca\"","uzadrese":"R\u012bgas 1, Jelgava, LV-3002 ","uzlogo":null,"uz_lat":"56.658219","uz_lng":"23.742611"},{"id_uznemums":"17","uz_tips_id":"2","knosaukums":"PRESTI\u017dS SIA","uznosaukums":"\"Ceplis\"","uzadrese":"Liel\u0101 iela 49, Jelgava, LV-3001 ","uzlogo":null,"uz_lat":"56.650842","uz_lng":"23.704947"},{"id_uznemums":"18","uz_tips_id":"3","knosaukums":"VISMAZ TR\u012aS V\u0100RDI SIA","uznosaukums":"\"Melno cepur\u012b\u0161u Balerija\"","uzadrese":"Rai\u0146a 28, Jelgava, LV-3001 ","uzlogo":null,"uz_lat":"56.647533","uz_lng":"23.71648"},{"id_uznemums":"19","uz_tips_id":"2","knosaukums":"Food embassy  SIA","uznosaukums":"Turkebab","uzadrese":"Driksas iela 4, T\/C Pils\u0113tas Pas\u0101\u017ea, Jelgava, LV-3001","uzlogo":null,"uz_lat":"56.650989","uz_lng":"23.725037"},{"id_uznemums":"20","uz_tips_id":"2","knosaukums":"GROSTS SIA","uznosaukums":"\"Chocolate&Pepper\"","uzadrese":"K.Barona 6, Jelgava, LV-3001","uzlogo":null,"uz_lat":"56.653876","uz_lng":"23.723968"},{"id_uznemums":"21","uz_tips_id":"2","knosaukums":"MONDO SIA","uznosaukums":"\u201cMondo\u201d ","uzadrese":"Akad\u0113mijas iela 19, Jelgava, LV-3001","uzlogo":null,"uz_lat":"56.648034","uz_lng":"23.731484"},{"id_uznemums":"22","uz_tips_id":"2","knosaukums":"VIKTORIJA B SIA","uznosaukums":"\"Silva\", bistro","uzadrese":"Driksas 9, Jelgava, LV-3001 ","uzlogo":null,"uz_lat":"56.650364","uz_lng":"23.724362"},{"id_uznemums":"23","uz_tips_id":"2","knosaukums":"V-T SIA","uznosaukums":"\"Pagrabi\u0146\u0161\"","uzadrese":"Pasta 43, Jelgava, LV-3001 ","uzlogo":null,"uz_lat":"56.649426","uz_lng":"23.724334"},{"id_uznemums":"24","uz_tips_id":"4","knosaukums":"MINIMEGA SIA","uznosaukums":"HESBURGER","uzadrese":"Loka ma\u0123istr\u0101le 2a, Jelgava, LV-3004","uzlogo":null,"uz_lat":"56.67084","uz_lng":"23.762099"},{"id_uznemums":"25","uz_tips_id":"4","knosaukums":"TIAMO GRUPA SIA ","uznosaukums":"\"\u010cili Pica\"","uzadrese":"R\u012bgas iela 11a, Jelgava, LV-3002","uzlogo":null,"uz_lat":"56.661654","uz_lng":"23.746901"},{"id_uznemums":"26","uz_tips_id":"2","knosaukums":"ROSI 9 Pilnsabiedr\u012bba ","uznosaukums":"PII \"\u0136ipari\" Kafejn\u012bca","uzadrese":"Pulkve\u017ea Brie\u017ea iela 23a, Jelgava, LV-3007","uzlogo":null,"uz_lat":"56.654395","uz_lng":"23.713117"},{"id_uznemums":"27","uz_tips_id":"2","knosaukums":"RUB\u012aNS SIA","uznosaukums":"Zemgales Olimpiskais centrs kafejn\u012bca","uzadrese":"Kronvalda 24, Jelgava, LV-3002","uzlogo":null,"uz_lat":"56.661135","uz_lng":"23.75394"},{"id_uznemums":"28","uz_tips_id":"2","knosaukums":"TAUGEM SIA","uznosaukums":"\"Promen\u0101de\"","uzadrese":"Skolot\u0101ju 2, Jelgava, LV-3001 ","uzlogo":null,"uz_lat":"56.648842","uz_lng":"23.708477"},{"id_uznemums":"29","uz_tips_id":"2","knosaukums":"AKALONA-L SIA","uznosaukums":"\"Magnolija City\"","uzadrese":"Atmodas 19, Jelgava, LV-3007 ","uzlogo":null,"uz_lat":"56.650765","uz_lng":"23.690431"}]